City_ID,City,Lat,Lng,Max Temp,Humidity,Cloudiness,Wind Speed,Country,Date
0,adamstown,-25.066,-130.1015,21.430000000000007,56,81,8.29,PN,1712856692
1,waitangi,-43.9535,-176.5597,16.010000000000048,95,55,3.13,NZ,1712856692
2,sao felix do xingu,-6.6447,-51.995,29.06,85,44,0.88,BR,1712856693
3,port-aux-francais,-49.35,70.2167,6.140000000000043,96,98,6.48,TF,1712856693
4,stanley,54.868,-1.6985,14.29000000000002,78,20,5.66,GB,1712856615
5,thompson,55.7435,-97.8558,2.090000000000032,69,75,4.63,CA,1712856694
6,luderitz,-26.6481,15.1594,21.0,55,1,3.19,,1712856694
7,iqaluit,63.7506,-68.5145,-2.1499999999999773,68,100,2.57,CA,1712856694
8,hithadhoo,-0.6,73.0833,28.840000000000032,74,55,1.77,MV,1712856695
9,alexandria,31.2156,29.9553,18.99000000000001,69,0,3.68,EG,1712856533
10,iskateley,67.6803,53.1512,1.6800000000000068,100,100,7.6,RU,1712856695
11,uacu cungo,-11.3634,15.1208,20.600000000000023,90,100,0.81,AO,1712856479
12,grand-popo,6.2804,1.8225,29.33000000000004,77,100,5.23,BJ,1712856696
13,opuwo,-18.0607,13.84,25.980000000000015,35,17,1.17,,1712856697
14,adam,22.3756,57.5233,33.379999999999995,26,59,4.94,OM,1712856697
15,papatowai,-46.5619,169.4708,7.340000000000032,89,100,3.08,NZ,1712856698
16,talnakh,69.4865,88.3972,-25.18999999999997,98,90,2.68,RU,1712856698
17,vorgashor,67.5833,63.95,-12.329999999999984,82,100,11.34,RU,1712856698
18,tofol,5.3248,163.0078,27.010000000000048,86,100,7.17,FM,1712856699
19,edinburgh of the seven seas,-37.0676,-12.3116,17.560000000000002,93,100,3.35,SH,1712856699
20,nar'yan-mar,67.6713,53.087,1.7300000000000182,100,100,7.6,RU,1712856699
21,kodiak,57.79,-152.4072,-2.269999999999982,86,100,2.06,US,1712856161
22,klyuchi,52.2667,79.1667,0.1500000000000341,86,95,3.49,RU,1712856700
23,chaohu,31.6,117.8667,16.53000000000003,98,100,1.93,CN,1712856700
24,orumiyeh,37.5527,45.0761,8.75,93,75,4.12,IR,1712856701
25,kailua-kona,19.6406,-155.9956,25.890000000000043,86,20,0.0,US,1712856478
26,remire-montjoly,4.9167,-52.2667,32.02000000000004,66,75,6.69,GF,1712856701
27,burley,42.5357,-113.7928,14.050000000000011,46,0,1.79,US,1712856702
28,puerto ayora,-0.7393,-90.3518,29.980000000000015,93,52,0.89,EC,1712856702
29,big spring,32.2504,-101.4787,21.25,29,0,4.12,US,1712856702
30,harstad,68.799,16.5293,2.8600000000000136,97,100,12.52,NO,1712856703
31,labrador city,52.9463,-66.9114,3.9500000000000455,60,100,6.17,CA,1712856611
32,nova sintra,14.8667,-24.7167,22.860000000000014,73,6,6.42,CV,1712856703
33,grytviken,-54.2811,-36.5092,0.82000000000005,74,46,5.34,GS,1712856703
34,blackmans bay,-43.0167,147.3167,10.29000000000002,86,99,0.45,AU,1712856704
35,terrace,54.5163,-128.6035,4.010000000000048,100,100,3.6,CA,1712856545
36,gwanda,-20.9333,29.0,19.900000000000038,57,60,7.53,ZW,1712856705
37,bethel,41.3712,-73.414,13.060000000000002,88,100,4.63,US,1712856699
38,hanceville,34.0607,-86.7675,20.840000000000032,93,73,5.95,US,1712856705
39,sao jose da coroa grande,-8.8978,-35.1478,29.850000000000023,68,81,4.01,BR,1712856595
40,invercargill,-46.4,168.35,7.79000000000002,87,100,0.45,NZ,1712856706
41,atafu village,-8.5421,-172.5159,29.200000000000045,74,51,2.2,TK,1712856706
42,bilibino,68.0546,166.4372,-21.95999999999998,100,95,0.75,RU,1712856707
43,banamba,13.55,-7.45,39.24000000000001,14,93,2.01,ML,1712856707
44,chilecito,-29.1619,-67.4974,10.210000000000036,80,100,2.55,AR,1712856707
45,carnarvon,-24.8667,113.6333,21.920000000000016,63,100,11.99,AU,1712856708
46,avarua,-21.2078,-159.775,27.03000000000003,89,20,6.17,CK,1712856708
47,nova vicosa,-17.8919,-39.3719,28.360000000000014,69,22,3.93,BR,1712856709
48,hermanus,-34.4187,19.2345,14.890000000000043,70,5,8.26,ZA,1712856709
49,novyy urgal,51.0736,132.5642,-1.5699999999999932,90,0,1.47,RU,1712856710
50,cockburn town,21.4612,-71.1419,25.32000000000005,73,10,7.32,TC,1712856710
51,longyearbyen,78.2186,15.6401,-13.089999999999977,61,0,3.09,SJ,1712856519
52,fruit heights,41.0322,-111.9022,17.75,31,0,3.6,US,1712856711
53,yaren,-0.5472,166.916,28.05000000000001,82,100,2.9,NR,1712856711
54,dudinka,69.4058,86.1778,-28.92999999999998,100,60,3.09,RU,1712856711
55,kerikeri,-35.2268,173.9474,19.390000000000043,94,79,1.41,NZ,1712856712
56,tura,25.5198,90.2201,25.390000000000043,32,100,1.17,IN,1712856712
57,beau vallon,-20.4189,57.6953,26.79000000000002,89,20,2.57,MU,1712856712
58,manggar,-2.8833,108.2667,26.32000000000005,86,98,1.03,ID,1712856713
59,atar,20.5169,-13.0499,40.27000000000004,8,0,5.15,MR,1712856713
60,galliano,29.4422,-90.2992,18.33000000000004,63,100,9.26,US,1712856713
61,port lincoln,-34.7333,135.8667,13.740000000000007,75,13,2.73,AU,1712856714
62,puerto natales,-51.7236,-72.4875,10.25,57,0,2.06,CL,1712856662
63,arraial do cabo,-22.9661,-42.0278,30.980000000000015,74,20,4.63,BR,1712856416
64,fort mcmurray,56.7268,-111.381,10.77000000000004,43,20,5.66,CA,1712856614
65,hobyo,5.3505,48.5268,29.31,73,91,4.7,SO,1712856715
66,tralee,52.2704,-9.7026,14.140000000000043,88,75,7.2,IE,1712856462
67,gorom-gorom,14.4439,-0.2361,38.0,16,100,1.88,BF,1712856716
68,gereshk,31.8209,64.5701,27.720000000000027,17,92,4.25,AF,1712856716
69,yellowknife,62.456,-114.3525,-0.7099999999999795,80,75,5.14,CA,1712856716
70,el granada,37.5027,-122.4694,24.950000000000045,74,20,2.06,US,1712856717
71,kawalu,-7.3817,108.2082,23.450000000000045,99,100,0.42,ID,1712856717
72,idritsa,56.3316,28.8988,10.010000000000048,52,82,4.13,RU,1712856717
73,qaqortoq,60.7167,-46.0333,-2.7299999999999613,75,92,2.02,GL,1712856718
74,albany,42.6001,-73.9662,13.300000000000011,81,100,3.13,US,1712856718
75,glace bay,46.1969,-59.957,10.740000000000007,44,0,7.2,CA,1712856718
76,el tigre,8.8875,-64.2454,35.97000000000003,29,67,5.36,VE,1712856719
77,ixtapa,20.7,-105.2,24.57000000000005,61,75,3.6,MX,1712856719
78,north bay,46.3168,-79.4663,12.010000000000048,62,100,6.17,CA,1712856638
79,ilulissat,69.2167,-51.1,-5.989999999999952,73,75,2.06,GL,1712856720
80,ciudad lazaro cardenas,17.9583,-102.2,28.57000000000005,56,0,3.82,MX,1712856720
81,maragogi,-9.0122,-35.2225,29.420000000000016,71,83,4.29,BR,1712856720
82,aswan,24.0934,32.907,27.390000000000043,14,0,4.18,EG,1712856442
83,tiksi,71.6872,128.8694,-28.369999999999976,96,24,6.34,RU,1712856721
84,ribeira grande,38.5167,-28.7,17.220000000000027,88,75,4.92,PT,1712856721
85,bel ombre,-4.6167,55.4167,25.910000000000025,89,20,1.54,SC,1712856722
86,baker city,44.7749,-117.8344,10.960000000000036,57,0,0.0,US,1712856510
87,san antonio de pale,-1.4014,5.6325,26.170000000000016,86,100,9.8,GQ,1712856722
88,arkhangel'sk,64.5401,40.5433,6.060000000000002,61,75,10.0,RU,1712856664
89,myeik,12.4333,98.6,28.260000000000048,82,18,2.4,MM,1712856723
90,ariquemes,-9.9133,-63.0408,29.0,90,81,1.47,BR,1712856603
91,baukau,51.5526,7.2042,15.920000000000016,77,100,2.94,DE,1712856724
92,port douglas,-16.4833,145.4667,22.81,75,23,3.77,AU,1712856442
93,flying fish cove,-10.4217,105.6791,26.82000000000005,89,75,4.12,CX,1712856725
94,latur,18.4,76.5833,26.950000000000045,49,99,6.96,IN,1712856725
95,jipijapa,-1.3333,-80.5833,29.720000000000027,68,98,0.9,EC,1712856725
96,nema,57.5067,50.5011,10.120000000000005,87,100,5.31,RU,1712856726
97,ushuaia,-54.8,-68.3,8.79000000000002,61,0,11.83,AR,1712856613
98,panaba,21.2833,-88.2667,32.21000000000004,40,65,6.68,MX,1712856726
99,college,64.8569,-147.8028,2.32000000000005,66,100,3.09,US,1712856681
100,hasaki,35.7333,140.8333,14.050000000000011,73,100,4.46,JP,1712856727
101,west island,-12.1568,96.8225,26.99000000000001,78,40,3.09,CC,1712856727
102,georgetown,5.4112,100.3354,29.410000000000025,81,20,1.03,MY,1712856595
103,wailua homesteads,22.0669,-159.378,23.24000000000001,90,75,1.54,US,1712856728
104,el calafate,-50.3408,-72.2768,8.090000000000032,51,10,1.99,AR,1712856519
105,san patricio,28.017,-97.5169,28.970000000000027,20,0,5.51,US,1712856729
106,port macquarie,-31.4333,152.9167,15.300000000000011,88,10,3.66,AU,1712856683
107,utrik,11.2278,169.8474,26.640000000000043,75,97,9.36,MH,1712856730
108,punta arenas,-53.15,-70.9167,10.060000000000002,53,0,7.2,CL,1712856537
109,ciudad del maiz,22.4,-99.6,22.04000000000002,31,28,5.89,MX,1712856730
110,al jawf,29.5,38.75,21.480000000000015,31,0,4.34,SA,1712856731
111,petropavlovsk-kamchatsky,53.0452,158.6483,-0.6699999999999591,71,0,11.62,RU,1712856731
112,jamestown,42.097,-79.2353,20.77000000000004,74,100,5.36,US,1712856696
113,ceerigaabo,10.6162,47.368,23.600000000000023,49,13,1.56,SO,1712856732
114,alice springs,-23.7,133.8833,13.450000000000044,49,2,0.45,AU,1712856732
115,mount pearl,47.5166,-52.7813,5.180000000000007,69,20,5.14,CA,1712856488
116,namibe,-15.1961,12.1522,22.650000000000038,76,13,5.68,AO,1712856733
117,lompoc,34.6391,-120.4579,24.27000000000004,64,0,1.54,US,1712856677
118,north bend,43.4065,-124.2243,12.180000000000009,71,75,1.54,US,1712856733
119,idri,27.5,13.2667,26.120000000000005,13,0,8.37,LY,1712856734
120,naze,28.3667,129.4833,18.510000000000048,86,53,0.76,JP,1712856734
121,anadyr,64.75,177.4833,-15.71999999999997,77,0,3.0,RU,1712856734
122,khandyga,62.6667,135.6,-1.9899999999999525,89,100,2.94,RU,1712856735
123,casablanca,33.5928,-7.6192,28.120000000000005,53,0,5.14,MA,1712856648
124,enewetak,11.3474,162.3373,26.840000000000032,80,84,10.54,MH,1712856735
125,villiers,-27.0303,28.6006,13.680000000000009,51,0,3.21,ZA,1712856736
126,rupert,42.6191,-113.6772,13.990000000000007,50,0,1.54,US,1712856704
127,oruro,-17.9833,-67.15,16.060000000000002,37,87,4.15,BO,1712856736
128,charlottetown,46.2352,-63.1267,12.160000000000023,55,75,7.72,CA,1712856737
129,kayes,14.0,-11.0,41.150000000000034,13,31,3.7,ML,1712856737
130,gisborne,-38.6533,178.0042,19.05000000000001,77,100,4.79,NZ,1712856710
131,weno,7.4515,151.8468,26.970000000000027,89,100,1.54,FM,1712856738
132,boguchany,58.3814,97.4531,-4.519999999999982,87,100,0.89,RU,1712856738
133,sao vicente,-23.9631,-46.3919,29.100000000000023,66,100,1.54,BR,1712856693
134,along,28.1667,94.7667,15.900000000000034,71,100,0.6,IN,1712856739
135,boone,39.0334,-92.3335,17.660000000000025,50,65,3.13,US,1712856735
136,plainview,40.7765,-73.4673,17.49000000000001,82,40,4.12,US,1712856739
137,ust'-uda,54.1742,103.0304,0.2800000000000295,95,100,1.47,RU,1712856740
138,aasiaat,68.7098,-52.8699,-4.979999999999961,82,100,1.54,GL,1712856740
139,bardai,11.65,7.2333,33.620000000000005,8,56,3.88,NG,1712856740
140,broken hill,-31.95,141.4333,12.840000000000032,59,3,3.68,AU,1712856546
141,kitimat,54.0524,-128.6534,4.390000000000043,65,100,2.68,CA,1712856741
142,saint-denis-en-val,47.8732,1.966,19.170000000000016,71,0,1.54,FR,1712856741
143,tyuratam,45.6507,63.3156,10.77000000000004,61,93,9.37,KZ,1712856742
144,copiapo,-27.3667,-70.3333,18.83000000000004,46,79,3.17,CL,1712856568
145,penafiel,41.2084,-8.2829,22.510000000000048,63,92,1.57,PT,1712856743
146,olonkinbyen,70.9221,-8.7187,-8.239999999999952,70,100,4.17,SJ,1712856743
147,angaur state,6.906,134.13,28.19,73,39,5.69,PW,1712856743
148,nyurba,63.2842,118.3319,-21.129999999999967,99,91,2.22,RU,1712856744
149,valparaiso,-33.0393,-71.6273,21.19,63,0,4.63,CL,1712856713
150,teploye,53.6202,37.5903,14.490000000000007,69,100,3.43,RU,1712856744
151,port mathurin,-19.6833,63.4167,27.21000000000004,76,28,3.61,MU,1712856745
152,razole,16.4833,81.8333,24.46000000000004,89,4,1.45,IN,1712856745
153,la passe,45.5549,-0.8967,18.129999999999995,85,88,3.54,FR,1712856745
154,sagna,46.9833,27.0167,19.510000000000048,68,44,3.14,RO,1712856746
155,kapuskasing,49.4169,-82.4331,17.05000000000001,42,75,4.63,CA,1712856456
156,codrington,-38.2667,141.9667,13.53000000000003,66,100,2.54,AU,1712856746
157,igarka,67.4667,86.5833,-28.319999999999965,100,23,2.24,RU,1712856746
158,qarazhal,48.0078,70.7903,2.1000000000000227,71,68,7.02,KZ,1712856747
159,lihue,21.9789,-159.3672,23.58000000000004,86,75,1.54,US,1712856747
160,tazacorte,28.629,-17.9293,23.54000000000002,64,0,6.17,ES,1712856747
161,ipameri,-17.7219,-48.1597,29.55000000000001,52,87,1.55,BR,1712856748
162,keflavik,64.0049,-22.5624,7.950000000000045,81,100,9.26,IS,1712856748
163,yarmouth,41.7057,-70.2286,12.200000000000044,95,100,2.57,US,1712856711
164,aberglasslyn,-32.7,151.5333,17.57000000000005,97,10,1.23,AU,1712856749
165,saipan,15.1355,145.701,27.390000000000043,83,40,5.66,MP,1712856749
166,vinh long,10.25,105.9667,27.99000000000001,77,50,5.61,VN,1712856750
167,usogorsk,63.4106,48.6872,4.810000000000002,100,100,7.19,RU,1712856751
168,general roca,-39.0333,-67.5833,15.900000000000034,38,100,8.0,AR,1712856739
169,borogontsy,62.6683,131.1683,0.3500000000000227,95,100,3.1,RU,1712856752
170,akureyri,65.6835,-18.0878,2.9600000000000364,70,100,2.06,IS,1712856752
171,kingston,17.997,-76.7936,32.870000000000005,63,20,11.83,JM,1712856655
172,lib,8.3122,167.3766,27.610000000000014,77,95,9.7,MH,1712856753
173,bredasdorp,-34.5322,20.0403,14.879999999999995,67,0,5.13,ZA,1712856753
174,sevastopol,44.6,33.5333,17.220000000000027,45,26,2.3,UA,1712856753
175,luganville,-15.5333,167.1667,24.58000000000004,85,55,0.87,VU,1712856754
176,kadnikov,59.5022,40.338,11.57000000000005,62,8,5.6,RU,1712856754
177,mazouna,36.1223,0.8987,16.920000000000016,45,0,6.55,DZ,1712856754
178,kadugli,11.0167,29.7167,32.75,9,9,3.64,SD,1712856755
179,tacuarembo,-31.7333,-55.9833,20.230000000000015,61,44,6.65,UY,1712856755
180,miass,55.045,60.1083,7.439999999999998,74,78,1.79,RU,1712856755
181,east london,-33.0153,27.9116,15.52000000000004,77,75,9.77,ZA,1712856756
182,afaahiti,-17.75,-149.2833,26.930000000000007,85,66,7.75,PF,1712856756
183,george town,5.4112,100.3354,29.410000000000025,81,20,1.03,MY,1712856595
184,margaret river,-33.95,115.0667,14.400000000000034,72,5,5.88,AU,1712856757
185,vilyuysk,63.7553,121.6247,-16.66999999999996,90,100,3.58,RU,1712856757
186,constantia,44.1833,28.65,16.5,70,1,1.5,RO,1712856585
187,suratgarh,29.3167,73.9,29.25,23,39,4.31,IN,1712856758
188,ta`u,-14.2336,-169.5144,28.400000000000038,81,17,4.18,AS,1712856758
189,ubon ratchathani,15.1667,105.1667,29.94,39,100,2.09,TH,1712856758
190,santa luzia,-19.7697,-43.8514,30.600000000000023,48,40,2.06,BR,1712856759
191,springfield,37.2153,-93.2982,15.510000000000048,53,0,10.29,US,1712856712
192,neiafu,-18.65,-173.9833,25.379999999999995,94,20,0.0,TO,1712856760
193,erenhot,43.6475,111.9767,13.060000000000002,38,22,4.15,CN,1712856760
194,brezina,33.0989,1.2608,18.340000000000032,17,30,7.45,DZ,1712856760
195,taltal,-25.4,-70.4833,20.400000000000038,72,52,3.67,CL,1712856761
196,usakos,-22.0,15.6,27.390000000000043,31,30,3.83,,1712856761
197,mananjary,-21.2167,48.3333,25.78000000000003,90,35,1.85,MG,1712856761
198,lebu,-37.6167,-73.65,15.050000000000011,59,0,2.97,CL,1712856696
199,buala,-8.145,159.5921,26.81,83,85,2.48,SB,1712856762
200,port elizabeth,-33.918,25.5701,16.170000000000016,80,0,4.12,ZA,1712856762
201,gamboma,-1.8764,15.8644,27.56,70,99,1.35,CG,1712856763
202,yemetsk,63.4721,41.7941,4.640000000000043,73,100,6.81,RU,1712856763
203,carandai,-20.9536,-43.8064,26.02000000000004,69,56,2.85,BR,1712856763
204,brookings,44.3114,-96.7984,7.32000000000005,83,100,10.8,US,1712856764
205,lerwick,60.1545,-1.1494,10.0,83,49,8.02,GB,1712856764
206,athni,16.7333,75.0667,30.160000000000025,35,17,3.95,IN,1712856764
207,aras-asan,8.8908,126.3033,24.480000000000015,89,90,1.58,PH,1712856765
208,kayangel,8.0823,134.7173,27.760000000000048,75,31,5.74,PW,1712856765
209,moyale,3.5167,39.0584,23.27000000000004,73,37,1.45,KE,1712856765
210,hadibu,12.65,54.0333,28.24000000000001,76,5,2.02,YE,1712856766
211,pangody,65.85,74.4859,-18.19999999999999,86,78,7.44,RU,1712856766
212,klaksvik,62.2266,-6.589,8.510000000000048,89,65,13.39,FO,1712856766
213,cabedelo,-6.9811,-34.8339,32.370000000000005,74,100,4.17,BR,1712856552
214,sarmiento,-45.5882,-69.07,13.860000000000014,30,0,2.37,AR,1712856630
215,lebork,54.5392,17.7501,15.82000000000005,61,100,6.1,PL,1712856767
216,kavaratti,10.5669,72.642,29.29000000000002,71,0,3.6,IN,1712856767
217,katsuren-haebaru,26.3369,127.8719,20.430000000000007,93,0,2.06,JP,1712856768
218,pisco,-13.7,-76.2167,24.03000000000003,83,37,5.14,PE,1712856768
219,whitehorse,60.7161,-135.0538,1.4300000000000068,59,20,2.57,CA,1712856769
220,udachny,66.4167,112.4,-28.079999999999984,100,77,2.23,RU,1712856769
221,hamilton,39.1834,-84.5333,19.390000000000043,90,100,4.12,US,1712856769
222,palmas,-10.2128,-48.3603,25.930000000000007,94,40,1.54,BR,1712856643
223,puerto baquerizo moreno,-0.9,-89.6,28.55000000000001,79,40,2.57,EC,1712856770
224,st. john's,47.5649,-52.7093,5.640000000000043,70,20,5.14,CA,1712856685
225,geraldton,-28.7667,114.6,21.230000000000015,60,69,7.2,AU,1712856475
226,miyako,39.6367,141.9525,9.060000000000002,84,100,2.36,JP,1712856771
227,coquimbo,-29.9533,-71.3436,13.850000000000025,94,100,3.6,CL,1712856710
228,hawaiian paradise park,19.5933,-154.9731,21.69,98,100,0.45,US,1712856771
229,houghton,47.1219,-88.569,13.710000000000036,70,100,2.57,US,1712856733
230,noumea,-22.2763,166.4572,25.56,99,100,2.51,NC,1712856605
231,chonchi,-42.6128,-73.8092,16.560000000000002,45,0,1.21,CL,1712856772
232,walvis bay,-22.9575,14.5053,18.53000000000003,77,0,2.57,,1712856773
233,adrar,20.5022,-10.0711,37.870000000000005,8,0,3.09,MR,1712856773
234,paciran,-6.8767,112.3761,24.32000000000005,93,100,4.86,ID,1712856773
235,illapel,-31.6308,-71.1653,19.920000000000016,47,99,3.8,CL,1712856774
236,markaz-e hukumat-e darweshan,31.1323,64.1934,29.99000000000001,15,89,4.41,AF,1712856774
237,lata,40.1629,-8.3327,28.29000000000002,61,79,2.63,PT,1712856775
238,shingu,33.7333,135.9833,12.300000000000011,91,88,3.5,JP,1712856775
239,fortuna,40.5982,-124.1573,12.03000000000003,88,100,2.57,US,1712856775
240,igrim,63.1906,64.4162,-2.359999999999957,96,100,7.72,RU,1712856776
241,badger,64.8,-147.5333,2.2700000000000387,70,100,3.09,US,1712856776
242,arno,60.1167,18.6333,5.990000000000009,84,100,6.58,SE,1712856776
243,caleta de carquin,-11.0925,-77.6267,24.82000000000005,72,87,4.88,PE,1712856777
244,fuglafjordur,62.244,-6.814,8.260000000000048,87,60,11.18,FO,1712856777
245,ierapetra,35.01,25.7353,17.07000000000005,70,84,3.91,GR,1712856777
246,fale old settlement,-9.3852,-171.2468,29.160000000000025,74,74,1.93,TK,1712856778
247,kibaya,-5.3,36.5667,17.99000000000001,93,77,1.65,TZ,1712856778
248,nicoya,10.1483,-85.452,35.49000000000001,41,81,2.33,CR,1712856779
249,uturoa,-16.7333,-151.4333,28.620000000000005,78,46,7.02,PF,1712856779
250,calvinia,-31.4707,19.776,17.120000000000005,28,0,7.83,ZA,1712856779
251,sitka,57.0531,-135.33,2.9399999999999977,87,20,0.0,US,1712856780
252,yarovoye,52.9273,78.58,-1.1899999999999975,83,100,6.04,RU,1712856780
253,harper,4.375,-7.7169,27.81,82,100,3.52,LR,1712856780
254,tippi,7.2,35.45,22.600000000000023,70,64,1.27,ET,1712856781
255,eydhafushi,5.1033,73.0708,29.83000000000004,73,1,4.22,MV,1712856781
256,dazhong,33.1997,120.4578,12.879999999999995,91,100,2.82,CN,1712856782
257,palpa,-14.5336,-75.1856,32.35000000000002,37,20,5.2,PE,1712856782
258,juan griego,11.0817,-63.9655,30.890000000000043,57,8,7.17,VE,1712856783
259,villa ojo de agua,-29.5,-63.6938,15.700000000000044,60,95,8.22,AR,1712856783
260,hoemul-li,41.4339,129.67,6.75,86,7,0.32,KP,1712856783
261,vadso,70.0744,29.7487,2.090000000000032,80,40,5.14,NO,1712856784
262,acopiara,-6.0953,-39.4525,27.29000000000002,77,100,1.08,BR,1712856784
263,salekhard,66.53,66.6019,-9.779999999999973,86,100,6.26,RU,1712856785
264,ad dawadimi,24.5077,44.3924,25.640000000000043,19,2,4.19,SA,1712856785
265,gadzhiyevo,69.2551,33.3362,2.0600000000000023,99,100,9.58,RU,1712856785
266,mejit,10.2753,170.8646,26.58000000000004,76,100,8.86,MH,1712856786
267,muntok,-2.0667,105.1833,26.02000000000004,89,96,2.05,ID,1712856786
268,ust-nera,64.5667,143.2,-14.359999999999957,97,82,2.99,RU,1712856787
269,derbent,42.0678,48.2899,14.480000000000018,60,100,4.05,RU,1712856787
270,pontianak,-0.0333,109.3333,24.99000000000001,100,75,1.54,ID,1712856788
271,isafjordur,66.0755,-23.124,2.0200000000000387,69,100,7.2,IS,1712856788
272,papao,-17.75,-149.55,27.82000000000005,83,57,8.68,PF,1712856788
273,arauquita,7.0292,-71.4281,38.83000000000004,23,73,2.27,CO,1712856789
274,yuzhno-kurilsk,44.0306,145.8556,4.650000000000034,76,100,3.9,RU,1712856789
275,kone,-21.0595,164.8658,22.58000000000004,90,99,1.79,NC,1712856790
276,bubaque,11.2833,-15.8333,24.400000000000038,71,0,9.02,GW,1712856790
277,nouadhibou,20.931,-17.0347,23.99000000000001,64,0,7.2,MR,1712856790
278,alexandroupoli,40.8475,25.8744,21.900000000000038,40,0,5.14,GR,1712856791
279,chagoda,59.164,35.3285,8.350000000000023,56,36,4.79,RU,1712856791
280,mar del plata,-38.0023,-57.5575,13.400000000000034,64,75,3.6,AR,1712856588
281,turtas,58.9417,69.1325,-5.71999999999997,88,84,3.77,RU,1712856792
282,kurumkan,54.3,110.3,3.400000000000034,79,42,2.24,RU,1712856792
283,lillehammer,61.1146,10.4674,6.740000000000009,86,71,3.28,NO,1712856792
284,micheweni,-4.9667,39.8333,28.360000000000014,81,25,3.9,TZ,1712856793
285,hede,33.7681,120.2517,12.470000000000027,90,100,2.77,CN,1712856793
286,koungou,-12.7336,45.2042,28.840000000000032,84,0,2.06,YT,1712856793
287,selfoss,63.9331,-20.9971,5.580000000000041,98,100,4.94,IS,1712856794
288,colonia,50.9333,6.95,16.210000000000036,74,100,1.72,DE,1712856587
289,kerch,45.3583,36.4758,13.090000000000032,81,0,6.26,UA,1712856568
290,san rafael,-34.6177,-68.3301,9.090000000000032,72,100,3.6,AR,1712856795
291,christchurch,-43.5333,172.6333,11.620000000000005,95,100,6.69,NZ,1712856558
292,bengkulu,-3.8004,102.2655,25.420000000000016,92,100,1.89,ID,1712856796
293,chabahar,25.2919,60.643,27.24000000000001,64,83,2.71,IR,1712856696
294,isangel,-19.55,169.2667,25.450000000000045,89,38,0.88,VU,1712856797
295,filey,54.21,-0.2892,16.82000000000005,76,100,2.24,GB,1712856797
296,kirkland lake,48.1446,-80.0377,12.160000000000023,47,100,1.54,CA,1712856798
297,longmen,24.9597,118.0889,20.340000000000032,91,91,0.84,CN,1712856798
298,blackwater,-23.5833,148.8833,16.79000000000002,52,0,1.92,AU,1712856798
299,ola,59.5833,151.2833,-7.699999999999989,90,36,2.22,RU,1712856799
300,puerto deseado,-47.7503,-65.8938,12.939999999999998,38,0,2.32,AR,1712856799
301,skelleftea,64.7507,20.9528,7.2000000000000455,45,0,2.06,SE,1712856799
302,marechal floriano,-20.4128,-40.6831,27.140000000000043,91,41,1.86,BR,1712856800
303,mudgee,-32.5943,149.5871,9.230000000000018,97,1,2.15,AU,1712856800
304,prado,-17.3411,-39.2208,28.80000000000001,68,44,3.83,BR,1712856800
305,nikolayevsk-on-amure,53.1406,140.73,0.1200000000000045,96,79,1.79,RU,1712856801
306,ngaoundere,7.3167,13.5833,27.370000000000005,29,54,0.56,CM,1712856801
307,tougue,11.4667,-11.6,30.980000000000015,32,68,1.04,GN,1712856802
308,port augusta,-32.5,137.7667,13.870000000000005,73,41,3.22,AU,1712856689
309,chany,55.3121,76.7647,-4.909999999999968,90,18,1.47,RU,1712856802
310,meadow lake,34.8014,-106.5436,18.04000000000002,23,0,2.77,US,1712856803
311,leava,-14.3,-178.1667,28.910000000000025,79,72,4.96,WF,1712856803
312,kiama,-34.6833,150.8667,16.110000000000014,90,2,2.79,AU,1712856803
313,muisne,0.6,-80.0333,28.80000000000001,68,18,3.89,EC,1712856804
314,thinadhoo,0.5333,72.9333,28.80000000000001,73,45,0.76,MV,1712856805
315,queenstown,-31.8976,26.8753,7.230000000000018,69,0,1.7,ZA,1712856805
316,montevallo,33.1007,-86.8642,19.08000000000004,80,100,6.17,US,1712856805
317,petropavlovka,50.6114,105.3196,5.430000000000007,85,89,1.05,RU,1712856806
318,virginia,37.5481,-77.4467,22.160000000000025,75,100,6.17,US,1712856601
319,pocoes,-14.5297,-40.3653,27.129999999999995,62,48,2.62,BR,1712856806
320,morazan,15.3167,-87.6,33.870000000000005,33,8,3.06,HN,1712856807
321,xinqing,48.2333,129.5,7.0,89,98,1.21,CN,1712856808
322,ugoofaaru,5.6667,73.0,29.450000000000045,76,21,4.64,MV,1712856808
323,durango,24.8333,-104.8333,20.730000000000015,11,21,5.3,MX,1712856770
324,wingham,43.8879,-81.3114,11.27000000000004,93,100,5.83,CA,1712856809
325,sanming,26.2486,117.6186,20.860000000000014,95,100,0.48,CN,1712856655
326,kununurra,-15.7667,128.7333,17.99000000000001,88,6,0.0,AU,1712856810
327,karratha,-20.7377,116.8463,27.100000000000023,73,0,4.02,AU,1712856810
328,cidade velha,14.9167,-23.6167,27.260000000000048,50,0,6.69,CV,1712856810
329,alofi,-19.0595,-169.9187,20.94,100,20,0.51,NU,1712856811
330,gokwe,-18.2048,28.9349,21.31,60,98,4.51,ZW,1712856811
331,pokrov,55.92,39.1769,11.360000000000014,69,38,2.61,RU,1712856812
332,eastham,41.8301,-69.9739,11.640000000000043,96,100,1.54,US,1712856812
333,port saint john's,-31.6229,29.5448,17.24000000000001,63,10,7.34,ZA,1712856812
334,stenungsund,58.0705,11.8181,12.379999999999995,90,52,9.18,SE,1712856813
335,ashburton,-37.8626,145.0794,13.680000000000009,88,93,1.04,AU,1712856813
336,cabo san lucas,22.8909,-109.9124,28.610000000000014,41,20,2.06,MX,1712856807
337,fort st. john,56.2499,-120.8529,4.939999999999998,56,75,4.63,CA,1712856605
338,cobija,-11.0267,-68.7692,32.10000000000002,66,75,2.57,BO,1712856814
339,namdrik,5.5994,168.1028,27.620000000000005,83,99,7.97,MH,1712856815
340,den burg,53.0542,4.7972,13.870000000000005,89,100,6.69,NL,1712856815
341,lazaro cardenas,17.9583,-102.2,28.57000000000005,56,0,3.82,MX,1712856720
342,paracuru,-3.41,-39.0306,29.5,76,70,3.02,BR,1712856816
343,morehead city,34.7229,-76.726,21.120000000000005,85,100,11.18,US,1712856612
344,cuiaba,-15.5961,-56.0967,26.96000000000004,83,75,3.09,BR,1712856605
345,magadan,59.5667,150.8,-8.039999999999964,92,15,2.18,RU,1712856817
346,saint-joseph,-21.3667,55.6167,26.21000000000004,84,81,1.04,RE,1712856818
347,vrangel',42.7297,133.0839,5.629999999999996,96,100,2.67,RU,1712856818
348,cuyo,10.8525,121.0086,28.340000000000032,74,59,9.89,PH,1712856818
349,beckley,37.7782,-81.1882,19.760000000000048,84,100,7.2,US,1712856802
350,holualoa,19.6228,-155.9522,23.82000000000005,84,20,0.0,US,1712856820
351,castillos,-34.1667,-53.8333,17.33000000000004,57,100,3.29,UY,1712856521
352,paine,-33.8167,-70.75,23.340000000000032,25,100,2.62,CL,1712856820
353,san sebastian de la gomera,28.0916,-17.1133,36.200000000000045,15,4,5.14,ES,1712856821
354,belozersk,60.0326,37.7957,8.32000000000005,82,6,8.05,RU,1712856821
355,sao joao da barra,-21.6403,-41.0511,33.05000000000001,78,0,4.23,BR,1712856822
356,hovd,48.0056,91.6419,6.490000000000009,48,40,0.98,MN,1712856822
357,fort bragg,35.139,-79.006,23.08000000000004,78,100,6.69,US,1712856822
358,tabuk,17.4189,121.4443,23.5,90,91,0.71,PH,1712856823
359,barra,-11.0894,-43.1417,32.14000000000004,46,59,2.38,BR,1712856823
360,sturlic,45.0639,15.7781,13.75,78,100,1.96,BA,1712856824
361,nishinoomote,30.7333,131.0,18.75,84,100,8.19,JP,1712856824
362,susuman,62.7833,148.1667,-20.00999999999999,100,99,0.45,RU,1712856824
363,bonny,4.4522,7.1681,29.07000000000005,79,91,6.2,NG,1712856825
364,port alfred,-33.5906,26.891,14.54000000000002,87,81,1.79,ZA,1712856825
365,torres,-29.3353,-49.7269,23.24000000000001,94,100,4.11,BR,1712856567
366,amga,60.8953,131.9608,-5.409999999999968,98,97,2.29,RU,1712856826
367,astoria,46.1879,-123.8313,11.060000000000002,81,75,2.57,US,1712856757
368,island harbour,50.724,-1.2758,15.58000000000004,91,96,2.24,GB,1712856826
369,yugorsk,61.3133,63.3319,-1.7299999999999611,75,100,7.32,RU,1712856827
370,usinsk,65.9939,57.5281,-0.5199999999999818,98,100,13.86,RU,1712856827
371,langarud,37.197,50.1535,13.03000000000003,92,100,5.89,IR,1712856827
372,chibougamau,49.9168,-74.3659,14.79000000000002,41,0,5.66,CA,1712856742
373,pacific grove,36.6177,-121.9166,22.99000000000001,81,0,4.02,US,1712856828
374,markala,13.7021,-6.0659,39.21000000000004,18,78,7.06,ML,1712856829
375,sao joao del rei,-21.1356,-44.2617,26.78000000000003,54,72,1.64,BR,1712856829
376,tejen,37.3834,60.5054,21.420000000000016,38,80,8.8,TM,1712856829
377,sola,-13.8833,167.55,27.660000000000025,80,85,3.32,VU,1712856830
378,zhangye,38.9342,100.4517,14.120000000000005,28,35,2.41,CN,1712856830
379,tari,12.4086,4.4914,37.21000000000004,8,95,1.55,NG,1712856831
380,bela,25.9333,81.9833,31.430000000000007,18,54,2.41,IN,1712856831
381,chachoengsao,13.6167,101.4167,31.720000000000027,87,94,1.99,TH,1712856831
382,paredon,16.0333,-93.8667,35.09000000000003,37,79,10.37,MX,1712856832
383,kamina,-8.7386,24.9906,21.05000000000001,90,100,1.0,CD,1712856832
384,shakawe,-18.3667,21.85,23.150000000000038,38,79,2.27,BW,1712856833
385,mutare,-18.9707,32.6709,15.740000000000007,92,99,1.56,ZW,1712856833
386,sosnovo-ozerskoye,52.5249,111.5418,-1.1399999999999864,85,8,2.06,RU,1712856833
387,hemsby,52.6971,1.6918,18.920000000000016,77,99,4.64,GB,1712856834
388,mishelevka,52.8575,103.1719,2.730000000000018,95,100,2.73,RU,1712856835
389,el parral,16.3675,-93.0058,27.71000000000004,38,61,5.34,MX,1712856835
390,cole harbour,44.6724,-63.4751,8.660000000000025,67,95,2.68,CA,1712856836
391,kasama,-10.2129,31.1808,18.950000000000045,89,47,0.4,ZM,1712856836
392,nuuk,64.1835,-51.7216,-1.6599999999999682,86,100,2.06,GL,1712856777
393,sinmak,38.4167,126.2333,9.090000000000032,76,0,1.21,KP,1712856837
394,sur,22.5667,59.5289,30.74000000000001,46,73,4.73,OM,1712856837
395,vilyuchinsk,52.9306,158.4028,0.1500000000000341,82,15,4.78,RU,1712856838
396,praia da vitoria,38.7333,-27.0667,20.140000000000043,77,40,2.51,PT,1712856838
397,voreppe,45.2948,5.6332,17.03000000000003,76,64,1.01,FR,1712856838
398,naifaru,5.4444,73.3657,29.379999999999995,76,3,4.44,MV,1712856839
399,mhamid,29.82,-5.72,31.30000000000001,6,3,3.52,MA,1712856839
400,ulsteinvik,62.3432,5.8487,10.5,85,100,10.28,NO,1712856788
401,santarem,-2.4431,-54.7083,29.07000000000005,84,40,1.03,BR,1712856574
402,balikpapan,-1.2675,116.8289,27.55000000000001,83,20,3.09,ID,1712856840
403,whakatane,-37.9585,176.9854,20.840000000000032,94,99,4.92,NZ,1712856840
404,urengoy,65.9667,78.3667,-23.47999999999999,99,17,4.07,RU,1712856841
405,tolanaro,-25.0319,46.9987,24.04000000000002,83,40,3.09,MG,1712856841
406,dalby,-27.1833,151.2667,15.670000000000016,83,0,3.85,AU,1712856841
407,tarakan,3.3,117.6333,27.680000000000007,76,21,3.21,ID,1712856842
408,newman,37.3138,-121.0208,23.360000000000014,64,38,1.34,US,1712856825
409,mount gambier,-37.8333,140.7667,12.970000000000027,60,95,1.59,AU,1712856842
410,olinda,-8.0089,-34.8553,30.850000000000023,74,20,5.14,BR,1712856843
411,fristad,65.2,16.7167,2.2800000000000296,94,100,1.15,SE,1712856843
412,at taj,24.2049,23.2857,23.180000000000007,16,50,4.09,LY,1712856843
413,aykhal,66.0,111.5,-28.899999999999977,100,99,2.68,RU,1712856844
414,arkalyk,50.2486,66.9114,1.660000000000025,67,6,4.27,KZ,1712856844
415,veinticinco de mayo,-35.4323,-60.1727,14.430000000000009,71,99,1.79,AR,1712856844
416,altay,47.8667,88.1167,3.1100000000000136,92,99,0.59,CN,1712856845
417,fukuecho,32.6881,128.8419,15.670000000000016,89,100,2.07,JP,1712856845
418,bozeman,45.6796,-111.0386,11.470000000000027,37,0,1.54,US,1712856566
419,hinton,53.4001,-117.5857,8.53000000000003,34,100,1.33,CA,1712856846
420,hashtrud,37.4779,47.0508,3.960000000000037,95,100,3.8,IR,1712856846
421,puerto francisco de orellana,-0.4667,-76.9667,32.03000000000003,70,40,1.54,EC,1712856619
422,souda,35.4844,24.0744,16.629999999999995,82,0,2.57,GR,1712856847
423,morant bay,17.8815,-76.4093,31.79000000000002,70,33,5.28,JM,1712856847
424,crane,31.3974,-102.3501,22.900000000000038,18,0,4.37,US,1712856848
425,labuan bajo,-8.4964,119.8877,26.379999999999995,80,93,1.67,ID,1712856848
426,nybro,56.7446,15.9071,12.910000000000023,85,100,6.26,SE,1712856848
427,katsuura,35.1333,140.3,14.29000000000002,81,100,3.5,JP,1712856849
428,kathu,7.9178,98.3332,26.900000000000038,72,77,6.7,TH,1712856849
429,guane,22.2025,-84.0875,33.08000000000004,45,68,6.45,CU,1712856849
430,piti village,13.4626,144.6933,27.49000000000001,85,20,4.63,GU,1712856850
431,cooma,-36.2333,149.1333,7.129999999999996,97,4,1.03,AU,1712856850
432,bamboo flat,11.7,92.7167,29.05000000000001,84,77,1.03,IN,1712856850
433,qarqaraly,49.4058,75.4742,-2.75,89,100,5.22,KZ,1712856851
434,sao raimundo das mangabeiras,-7.0219,-45.4811,30.510000000000048,66,95,2.32,BR,1712856851
435,bouar,5.934,15.596,23.75,72,60,1.4,CF,1712856851
436,inari,68.906,27.0288,3.3100000000000023,80,79,6.35,FI,1712856852
437,ra's bayrut,33.9,35.4833,18.81,82,20,2.57,LB,1712856852
438,the pas,53.8251,-101.2541,5.010000000000048,70,100,3.6,CA,1712856852
439,loei,17.4167,101.5,25.52000000000004,46,64,1.61,TH,1712856853
440,al kharijah,25.4514,30.5464,23.96000000000004,24,61,4.2,EG,1712856853
441,mokhsogollokh,61.4681,128.9203,-1.5399999999999636,96,100,1.74,RU,1712856853
442,soio,-6.1349,12.3689,27.29000000000002,82,76,4.9,AO,1712856854
443,northam,51.0333,-4.2167,14.660000000000023,97,99,5.9,GB,1712856854
444,santa cruz,-17.8,-63.1667,27.700000000000045,73,75,7.2,BO,1712856600
445,vorkuta,67.5,64.0,-12.159999999999968,82,100,4.92,RU,1712856835
446,tsiombe,-25.3,45.4833,21.71000000000004,81,100,2.89,MG,1712856855
447,flin flon,54.7682,-101.865,2.910000000000025,81,100,5.14,CA,1712856855
448,namie,37.4833,141.0,9.75,85,100,2.19,JP,1712856856
449,la ronge,55.1001,-105.2842,3.140000000000043,70,100,3.09,CA,1712856856
450,kapit,2.0167,112.9333,23.470000000000027,99,97,0.71,MY,1712856856
451,southeast arcadia,27.1863,-81.8521,29.370000000000005,83,33,6.26,US,1712856856
452,rudnichnyy,59.617,52.4703,7.150000000000034,83,77,4.42,RU,1712856857
453,richards bay,-28.783,32.0377,20.27000000000004,60,20,6.85,ZA,1712856672
454,kourou,5.1552,-52.6478,32.03000000000003,74,66,3.45,GF,1712856605
455,pohang,36.0322,129.365,11.650000000000034,81,9,2.03,KR,1712856858
456,francistown,-21.17,27.5079,21.03000000000003,53,100,8.87,BW,1712856858
457,bakanas,44.8081,76.2772,14.350000000000025,53,67,3.58,KZ,1712856858
458,dunedin,-45.8742,170.5036,7.670000000000016,97,100,2.68,NZ,1712856679
459,korkuteli,37.065,30.1957,13.03000000000003,61,48,0.2,TR,1712856859
460,mbulu,-3.85,35.5333,16.32000000000005,92,38,1.16,TZ,1712856860
461,singaparna,-7.3515,108.111,23.180000000000007,99,100,0.31,ID,1712856860
462,talakan,50.3167,130.3667,2.910000000000025,65,25,2.49,RU,1712856860
463,dan gora,11.5349,8.1522,32.89000000000004,8,37,3.68,NG,1712856861
464,sidney,-33.8679,151.2073,14.660000000000023,87,20,3.09,AU,1712856861
465,korsakov,46.6328,142.7813,5.470000000000027,86,35,3.69,RU,1712856861
466,swellendam,-34.0226,20.4417,14.560000000000002,68,0,5.6,ZA,1712856862
467,madona,56.8533,26.217,10.090000000000032,61,100,6.62,LV,1712856862
468,revda,56.801,59.9303,6.6200000000000045,73,95,5.93,RU,1712856862
469,fort wellington,6.4,-57.6,30.170000000000016,62,16,5.68,GY,1712856863
470,sokhumi,43.0033,41.0153,13.260000000000048,90,88,1.76,GE,1712856863
471,tevriz,57.509,72.4042,-5.0499999999999545,84,60,2.59,RU,1712856863
472,okahandja,-21.9833,16.9167,24.29000000000002,26,12,1.58,,1712856864
473,tabou,4.423,-7.3528,28.120000000000005,80,96,4.76,CI,1712856864
474,marondera,-18.1853,31.5519,13.390000000000043,81,100,4.01,ZW,1712856864
475,iida,35.5197,137.8207,11.129999999999995,92,100,0.89,JP,1712856865
476,saint-pierre,-21.3393,55.4781,26.82000000000005,74,0,1.03,RE,1712856865
477,salalah,17.0151,54.0924,28.05000000000001,74,75,3.09,OM,1712856805
478,bainbridge,47.6262,-122.5212,12.300000000000011,72,0,3.13,US,1712856592
479,launceston,-41.45,147.1667,8.420000000000016,93,40,2.06,AU,1712856825
480,yurty,56.0498,97.6348,-1.9599999999999795,92,100,2.14,RU,1712856866
481,qusmuryn,52.4503,64.6311,4.670000000000016,68,32,3.5,KZ,1712856867
482,kyabe,9.4515,18.9449,36.32000000000005,20,15,0.84,TD,1712856867
483,kenora,49.8167,-94.4337,11.54000000000002,50,75,5.14,CA,1712856867
484,kirakira,-10.4544,161.9205,25.629999999999995,86,73,1.23,SB,1712856868
485,okha,53.5739,142.9478,2.3600000000000136,89,84,1.79,RU,1712856868
486,moss vale,-34.55,150.3833,8.460000000000036,97,0,0.77,AU,1712856868
487,martuk,50.7475,56.5056,10.110000000000014,60,100,2.4,KZ,1712856869
488,la mure,44.9026,5.7866,10.650000000000034,89,32,1.9,FR,1712856869
489,ashkelon,31.6693,34.5715,19.94,83,1,2.85,IL,1712856869
490,mount pleasant,32.7941,-79.8626,21.08000000000004,97,100,3.09,US,1712856671
491,nuku'alofa,-21.1333,-175.2,24.19,94,40,0.51,TO,1712856870
492,palenque,17.5167,-91.9667,28.090000000000032,83,75,6.17,MX,1712856607
493,douz,33.4663,9.0203,15.660000000000023,55,57,7.47,TN,1712856871
494,happy valley-goose bay,53.3168,-60.3315,13.170000000000016,14,40,5.14,CA,1712856610
495,puerto armuelles,8.2833,-82.8667,32.99000000000001,71,100,1.34,PA,1712856871
496,acajutla,13.5928,-89.8275,31.910000000000025,61,40,5.8,SV,1712856872
497,toamasina,-18.1667,49.3833,28.0,89,20,3.6,MG,1712856575
498,yung shue wan,22.2333,114.1167,24.680000000000007,87,45,3.48,HK,1712856872
499,berdigestyakh,62.0989,126.6992,-10.549999999999956,94,100,3.82,RU,1712856873
500,brokopondo,4.75,-55.1667,31.590000000000032,57,76,2.56,SR,1712856873
501,tanout,14.9709,8.8879,34.53000000000003,7,69,4.5,NE,1712856873
502,ambon,-3.6954,128.1814,28.260000000000048,95,40,1.03,ID,1712856874
503,novokuznetsk,53.7557,87.1099,1.2200000000000273,99,100,3.24,RU,1712856874
504,sovetskaya gavan',48.9723,140.2878,8.950000000000045,59,49,1.5,RU,1712856874
505,zonguldak,41.25,31.8333,10.470000000000027,89,33,0.38,TR,1712856875
506,fortaleza,-3.7227,-38.5247,31.71000000000004,87,75,4.12,BR,1712856766
507,slave lake,55.2834,-114.769,8.990000000000009,29,0,3.6,CA,1712856622
508,qui nhon,13.7667,109.2333,24.5,93,87,2.26,VN,1712856876
509,tamanrasset,22.785,5.5228,30.950000000000045,7,0,4.63,DZ,1712856876
510,touros,-5.1989,-35.4608,29.54000000000002,71,77,3.3,BR,1712856876
511,luninyets,52.2472,26.8047,11.420000000000016,57,3,2.42,BY,1712856877
512,korla,41.7597,86.1469,17.99000000000001,24,39,3.22,CN,1712856877
513,lodja,-3.4833,23.4333,25.640000000000043,73,100,0.78,CD,1712856877
514,velasco ibarra,-1.05,-79.6167,30.670000000000016,67,65,1.09,EC,1712856878
515,mumbwa,-14.9783,27.0619,19.629999999999995,89,100,1.28,ZM,1712856878
516,sinabang,2.4803,96.3801,27.08000000000004,82,97,0.45,ID,1712856878
517,tutoia,-2.7619,-42.2744,28.83000000000004,79,77,3.12,BR,1712856879
518,paita,-5.0892,-81.1144,25.96000000000004,68,52,5.38,PE,1712856879
519,elliot lake,46.3834,-82.6331,11.990000000000007,57,100,4.39,CA,1712856879
520,ryotsu-minato,38.0833,138.4333,11.29000000000002,60,100,1.27,JP,1712856880
521,bac lieu,9.285,105.7244,28.52000000000004,71,46,8.05,VN,1712856880
522,senanga,-16.1167,23.2667,21.52000000000004,82,69,1.71,ZM,1712856880
523,altai,46.3722,96.2583,0.1800000000000068,63,67,9.64,MN,1712856881
524,smithers,54.7804,-127.1743,2.180000000000007,100,100,0.0,CA,1712856881
525,nagqu,31.5,92.0,-1.759999999999991,50,100,4.74,CN,1712856881
526,pekan,3.4836,103.3996,27.06,84,100,3.35,MY,1712856881
527,taroa,8.7058,171.2275,27.32000000000005,80,86,9.02,MH,1712856882
528,bandon,51.7469,-8.7425,11.77000000000004,94,98,8.46,IE,1712856787
529,tres lagoas,-20.7511,-51.6783,30.32000000000005,62,78,1.01,BR,1712856606
530,olyokminsk,60.3736,120.4264,-6.029999999999973,88,100,4.24,RU,1712856883
531,new norfolk,-42.7826,147.0587,10.950000000000044,85,92,1.31,AU,1712856883
532,samana,19.2056,-69.3369,30.120000000000005,66,40,3.09,DO,1712856883
533,dongcun,36.7767,121.1597,9.379999999999995,84,68,1.06,CN,1712856884
534,tazovsky,67.4667,78.7,-24.96999999999997,97,22,3.97,RU,1712856884
535,nishiwaki,34.9833,134.9667,13.660000000000023,89,94,1.27,JP,1712856884
536,gizo,-8.103,156.8419,28.28000000000003,78,78,2.83,SB,1712856885
537,palafrugell,41.9174,3.1631,21.420000000000016,8,24,0.8,ES,1712856885
538,miquelon,47.0975,-56.3814,5.0,71,4,4.12,PM,1712856885
539,niquero,20.0431,-77.5828,31.56,52,2,2.9,CU,1712856886
540,fallon,39.4735,-118.7774,20.510000000000048,37,0,3.09,US,1712856613
541,kupang,-10.1667,123.5833,26.32000000000005,94,100,2.57,ID,1712856887
542,portland,45.5234,-122.6762,13.78000000000003,73,75,1.34,US,1712856592
543,puquio,-14.7,-74.1333,14.189999999999998,77,64,4.79,PE,1712856887
544,antalaha,-14.9003,50.2788,25.879999999999995,90,55,1.28,MG,1712856887
545,onega,63.9061,38.1404,3.410000000000025,77,86,8.95,RU,1712856888
546,shalkar,47.8288,59.6258,8.03000000000003,66,4,4.0,KZ,1712856888
547,galveston,29.3669,-94.9669,26.160000000000025,43,0,7.72,US,1712856731
548,rosarito,32.3333,-117.0333,25.29000000000002,66,0,3.57,MX,1712856889
549,zhukovka,53.534,33.728,16.02000000000004,61,69,2.45,RU,1712856889
550,sittwe,20.15,92.9,26.410000000000025,68,0,2.88,MM,1712856890
551,swinoujscie,53.9105,14.2471,14.08000000000004,72,100,5.66,PL,1712856890
552,amasra,41.7463,32.3863,12.840000000000032,85,8,2.14,TR,1712856891
553,nabire,-3.3667,135.4833,24.200000000000045,93,99,0.96,ID,1712856891
554,ondjiva,-17.0667,15.7333,31.02000000000004,37,0,1.03,AO,1712856891
555,axim,4.8699,-2.2405,27.410000000000025,78,100,3.01,GH,1712856892
556,salym,60.0625,71.4789,-7.419999999999959,85,88,4.25,RU,1712856892
557,swift current,50.2834,-107.8014,8.450000000000045,27,0,3.6,CA,1712856893
558,howrah,22.5892,88.3103,30.05000000000001,61,40,0.0,IN,1712856779
559,vega de alatorre,20.0333,-96.6333,27.430000000000007,42,56,4.83,MX,1712856893
560,esil,51.9556,66.4042,2.3500000000000227,72,34,1.76,KZ,1712856894
561,boadilla del monte,40.405,-3.8784,26.090000000000032,37,0,5.14,ES,1712856894
562,calama,-22.4667,-68.9333,23.27000000000004,16,0,5.14,CL,1712856701
563,gabane,-24.6667,25.7822,20.46000000000004,56,0,3.09,BW,1712856895
564,chapaev,50.2,51.1667,13.720000000000027,56,40,3.22,KZ,1712856895
565,beyneu,45.3167,55.2,12.510000000000048,59,1,7.5,KZ,1712856896
566,wenchang,30.904,118.4887,16.30000000000001,96,98,0.73,CN,1712856896
567,morogoro,-6.8167,37.6667,23.510000000000048,96,72,0.95,TZ,1712856896
568,sarupathar,26.1984,93.8094,25.19,40,97,0.95,IN,1712856897
569,rikaze,29.25,88.8833,2.840000000000032,26,39,1.77,CN,1712856897
570,medina,24.4686,39.6142,30.24000000000001,8,0,3.09,SA,1712856602
571,necochea,-38.5473,-58.7368,14.490000000000007,50,98,4.55,AR,1712856723
572,bonthe,7.5264,-12.505,28.74000000000001,67,92,4.56,SL,1712856898
573,isyangulovo,52.1909,52.1909,11.480000000000018,75,94,4.2,RU,1712856898
574,haiku-pauwela,20.9219,-156.3051,23.360000000000014,82,20,4.92,US,1712856799
575,vodnyy,63.5046,53.4095,4.1200000000000045,96,100,6.0,RU,1712856899
576,thunder bay,48.4001,-89.3168,16.950000000000045,45,75,6.69,CA,1712856856
577,alto barinas,8.5931,-70.2261,37.370000000000005,25,27,4.39,VE,1712856900
578,vung tau,10.346,107.0843,27.57000000000005,82,18,10.86,VN,1712856900
579,kurchatov,51.6601,35.6521,21.340000000000032,75,100,3.56,RU,1712856901
580,shiraoi,42.55,141.35,7.100000000000023,79,100,1.16,JP,1712856901
581,saint-philippe,-21.3585,55.7679,26.77000000000004,86,80,2.05,RE,1712856902
582,cooper's town,26.8667,-77.5167,23.629999999999995,90,39,11.08,BS,1712856902
583,luwuk,-0.9516,122.7875,21.74000000000001,85,100,2.22,ID,1712856903
